"data_street","data_city","data_country","data_lat","data_lon"
"38-48, Valerian Way","London","United Kingdom","51.5264151","0.0066865"
"1000, 5th Avenue","New York","United States","40.7794396","-73.96338248033601"
"2, Macquarie Street","Sydney","Australia","-33.85719805","151.21512338473752"
"189, Avenida Ricardo Cumming","Santiago","Chile","-33.44297295","-70.66765140256382"
"5, улица Столетова","Москва","Россия","55.704081","37.504991326371766"
"Soul Buoy",,,"0.0","0.0"
"Fort 49¼ ""Grębałów""","Krakow","Poland","50.0948311","20.068111616472365"
,,,,
" "," "," ",,
"Идейные соображения высшего порядка, а также дальнейшее развитие различных форм деятельности позволяет оценить значение новых предложений.Идейные соображения высшего порядка, а также начало повседневной работы по формированию позиции позволяет оценить значение модели развитияo.Товарищи! консультация с широким активом позволяет выполнять важные задания по разработке систем массового участиязо разработке систем массового уiii.Товарищи! консультация с широким активом позволяет выполнять важные задания по разработке систем массового участиязадарстем массового у.Товарищи! консультация с широким активом позволяет выполнять важные задания по разработке систем маадания поу.Товарищи! консультация с широким активом позволяет выполнять важные задания по разработке систем массовогозаданияyhtjtg ового уi.Товарищи! консультация с широким активом позволяет выполнять важные задания по разработке систем массового участмdТоварищи! консультация с широким активом позволяет выполнять важные задания по разработке систем массового участия.Товарищи! консультация с широким активом позволяет выполнять важные задания по разработке систем массового участия b.Не следует, однако забывать, что дальнейшее развитие различных форм деятельности способствует подготовки и реализации форм развития.Равным образом консультация с широким активом требуют определения и уточнения модели развития. Повседневная практика показывает, что укрепление иtразвитие структуры обеспечивает широкому кругу участие в формировании дальнейших направлений развитияzzz.",,,,
"Идейные соображения высшего порядка",,,,
